{
  "bases" : [
{
"base_id": 1,
"name": "Санкт-Петербург",
"address": "г. Всеволожск, Колтушское шоссе, д.298",
"phone": "+7(812) 666-66-55",
"lng": "30.658632",
"lat": "59.995009",
"working_days": "1,2,4,6,7",
"working_until": "19,19,19,20,20",
"manipulator_days": "1,4"
},
{
"base_id": 45,
"name": "Бокситогорск",
"address": "г. Бокситогорск, ул. Заводская-Жукова",
"phone": "+7(812) 666-66-55",
"lng": "33.834401",
"lat": "59.469048",
"working_days": "1,2,4,6,7",
"working_until": "19,19,19,20,20",
"manipulator_days": "1,4"
},
{
"base_id": 15,
"name": "Васкелово",
"address": "п. Васкелово, Вокзальная пл., д.17  ",
"phone": "+7(812) 666-66-55",
"lng": "30.367494",
"lat": "60.371819",
"working_days": "1,2,4,6,7",
"working_until": "19,19,19,20,20",
"manipulator_days": "1,4"
},
{
"base_id": 34,
"name": "Великий Новгород",
"address": "г. Великий Новгород, ул. Большая Санкт - Петербургская, д. 82а",
"phone": "+7(800) 555-66-66",
"lng": "31.26856630555293",
"lat": "58.54899578030187",
"working_days": "1,2,4,6,7",
"working_until": "19,19,19,20,20",
"manipulator_days": "1,4"
},
{
"base_id": 46,
"name": "Волхов",
"address": "Ленинградская область, г. Волхов, Кировский проспект, дом 1",
"phone": "+7(812) 666-66-55",
"lng": "32.348792",
"lat": "59.916906",
"working_days": "1,2,4,6,7",
"working_until": "19,19,19,20,20",
"manipulator_days": "1,4"
},
{
"base_id": 2,
"name": "Всеволожск",
"address": "г. Всеволожск, ул.Константиновская, д.189",
"phone": "+7(812) 666-66-55",
"lng": "30.662849",
"lat": "60.016953",
"working_days": "1,2,4,6,7",
"working_until": "19,19,19,20,20",
"manipulator_days": "1,4"
},
{
"base_id": 31,
"name": "Выборг",
"address": "г. Выборг, Ленинградское шоссе, д.50  ",
"phone": "+7(812) 666-66-55",
"lng": "28.788419",
"lat": "60.698983",
"working_days": "1,2,4,6,7",
"working_until": "19,19,19,20,20",
"manipulator_days": "1,4"
},
{
"base_id": 24,
"name": "Выра",
"address": "п. Выра, Большой пр., д. 27",
"phone": "+7(812) 666-66-55",
"lng": "29.963076",
"lat": "59.348727",
"working_days": "1,2,4,6,7",
"working_until": "19,19,19,20,20",
"manipulator_days": "1,4"
},
{
"base_id": 22,
"name": "Вырица",
"address": "п. Вырица, ул. Вокзальная, д.1",
"phone": "+7(812) 666-66-55",
"lng": "30.347957",
"lat": "59.412979",
"working_days": "1,2,4,6,7",
"working_until": "19,19,19,20,20",
"manipulator_days": "1,4",
"sub_base": {
"base_id": 37,
"name": "Вырица (Ленина)",
"address": "п. Вырица, проспект Ленина, д.1",
"phone": "+7 (812) 666-66-55",
"lng": "30.329728",
"lat": "59.403483",
"working_days": "1,2,4,6,7",
"working_until": "19,19,19,20,20",
"manipulator_days": "1,4"
}
},
{
"base_id": 19,
"name": "Гатчина",
"address": "г. Гатчина, ул. Киевская, д.15",
"phone": "+7(812) 666-66-55",
"lng": "30.106682",
"lat": "59.555532",
"working_days": "1,2,4,6,7",
"working_until": "19,19,19,20,20",
"manipulator_days": "1,4"
},
{
"base_id": 12,
"name": "Грузино",
"address": "п. Грузино, ул. Привокзальная, д.2  ",
"phone": "+7(812) 666-66-55",
"lng": "30.425660746914545",
"lat": "60.32954984360709",
"working_days": "1,2,4,6,7",
"working_until": "19,19,19,20,20",
"manipulator_days": "1,4",
"sub_base": {
"base_id": 49,
"name": "Грузино-2",
"address": "п. Грузино, ул. Привокзальная, д.2  ",
"phone": "+7(812) 666-66-55",
"lng": "30.425660746914545",
"lat": "60.32954984360709"
}
},
{
"base_id": 41,
"name": "Заполье",
"address": "п.Заполье. ул. Ленинградская д.121",
"phone": "+7(812) 666-66-55",
"lng": "29.68060215287265",
"lat": "58.36919456507541",
"working_days": "1,2,4,6,7",
"working_until": "19,19,19,20,20",
"manipulator_days": "1,4"
},
{
"base_id": 9,
"name": "Зеленогорск",
"address": "г. Зеленогорск, ул. Кр. Курсантов, д.16",
"phone": "+7(812) 666-66-55",
"lng": "29.699968",
"lat": "60.203235",
"working_days": "1,2,4,6,7",
"working_until": "19,19,19,20,20",
"manipulator_days": "1,4"
},
{
"base_id": 6,
"name": "Колпино",
"address": "г. Колпино, ул В. Слуцкой, д. 1а",
"phone": "+7(812) 666-66-55",
"lng": "30.585566",
"lat": "59.752143",
"working_days": "1,2,4,6,7",
"working_until": "19,19,19,20,20",
"manipulator_days": "1,4"
},
{
"base_id": 3,
"name": "Колтуши",
"address": "п. Колтуши, дер. Аро, ул. Мелиораторов, д.2",
"phone": "+7(812) 666-66-55",
"lng": "30.650564",
"lat": "59.92997",
"working_days": "1,2,4,6,7",
"working_until": "19,19,19,20,20",
"manipulator_days": "1,4"
},
{
"base_id": 20,
"name": "Коммунар",
"address": "г. Коммунар, Ленинградское шоссе, д.35",
"phone": "+7(812) 666-66-55",
"lng": "30.387085",
"lat": "59.632459",
"working_days": "1,2,4,6,7",
"working_until": "19,19,19,20,20",
"manipulator_days": "1,4"
},
{
"base_id": 36,
"name": "Лодейное Поле",
"address": "ул. Железнодорожная, д.4",
"phone": "+7(800) 555-66-66",
"lng": "33.595850172026836",
"lat": "60.729308929006244",
"working_days": "1,2,4,6,7",
"working_until": "19,19,19,20,20",
"manipulator_days": "1,4"
},
{
"base_id": 18,
"name": "Лосево",
"address": "п. Лосево, Приозерское шоссе",
"phone": "+7(812) 666-66-55",
"lng": "29.996915",
"lat": "60.681889",
"working_days": "1,2,4,6,7",
"working_until": "19,19,19,20,20",
"manipulator_days": "1,4"
},
{
"base_id": 32,
"name": "Луга",
"address": "г. Луга, ул. Виктора Пислегина, д. 45",
"phone": "+7(812) 666-66-55",
"lng": "29.85353728968636",
"lat": "58.75089648329123",
"working_days": "1,2,4,6,7",
"working_until": "19,19,19,20,20",
"manipulator_days": "1,4"
},
{
"base_id": 27,
"name": "Мурино",
"address": "п. Мурино, ул. Центральная, д.17",
"phone": "+7(812) 666-66-55",
"lng": "30.451402",
"lat": "60.045227",
"working_days": "1,2,4,6,7",
"working_until": "19,19,19,20,20",
"manipulator_days": "1,4"
},
{
"base_id": 26,
"name": "Ново-Токсово",
"address": "п. Ново-Токсово, Ленинградское шоссе, д. 21  ",
"phone": "+7(812) 666-66-55",
"lng": "30.557373",
"lat": "60.205606",
"working_days": "1,2,4,6,7",
"working_until": "19,19,19,20,20",
"manipulator_days": "1,4"
},
{
"base_id": 40,
"name": "Отрадное ",
"address": "г. Отрадное, ул. Ленина, д. 19",
"phone": "8-800-555-66-66",
"lng": "30.786370449322217",
"lat": "59.76640024965089",
"working_days": "1,2,4,6,7",
"working_until": "19,19,19,20,20",
"manipulator_days": "1,4"
},
{
"base_id": 10,
"name": "Песочный",
"address": "п. Песочный, ул. Ленинградская, д. 34а",
"phone": "+7(812) 666-66-55",
"lng": "30.163515",
"lat": "60.122908",
"working_days": "1,2,4,6,7",
"working_until": "19,19,19,20,20",
"manipulator_days": "1,4"
},
{
"base_id": 16,
"name": "Приозерск",
"address": "г. Приозерск, ул. Красноармейская, д.6а",
"phone": "+7(812) 666-66-55",
"lng": "30.119412",
"lat": "61.034097",
"working_days": "1,2,4,6,7",
"working_until": "19,19,19,20,20",
"manipulator_days": "1,4"
},
{
"base_id": 44,
"name": "Псков",
"address": "г. Псков, Октябрьский проспект, д.60.",
"phone": "+7(800) 555-66-66",
"lng": "28.367344",
"lat": "57.809742",
"working_days": "1,2,4,6,7",
"working_until": "19,19,19,20,20",
"manipulator_days": "1,4",
"sub_base": {
			"base_id": 48,
		    "name": "Псков (Н. Васильева)",
		    "address": "г. Псков, улица Николая Васильева, д.94",
		    "phone": "+7(812) 555-66-66",
		    "lng": "29.956303",
		    "lat": "60.082196"
			}
},
{
"base_id": 4,
"name": "Романовка",
"address": "п. Романовка, Дорога жизни, д.30а",
"phone": "+7(812) 666-66-55",
"lng": "30.6991443280635",
"lat": "60.04612941787302",
"working_days": "1,2,4,6,7",
"working_until": "19,19,19,20,20",
"manipulator_days": "1,4"
},
{
"base_id": 38,
"name": "Рощино",
"address": "п. Рощино, ул. Круговая, д.10",
"phone": "+7 (812) 666-66-55",
"lng": "29.577752",
"lat": "60.255405",
"working_days": "1,2,4,6,7",
"working_until": "19,19,19,20,20",
"manipulator_days": "1,4"
}
]
}
